{"type":"FeatureCollection","features":[{"type":"Feature","geometry":{"type":"LineString","coordinates":[[-9.472264,38.732407],[-9.429075,38.731846],[-9.381014,38.755403],[-9.352099,38.793762],[-9.371613,38.836948],[-9.396053,38.93626],[-9.39532,38.990016],[-9.349881,39.052135],[-9.297829,39.144523],[-9.238496,39.215131],[-9.182477,39.311638],[-9.144995,39.368236],[-9.130793,39.426213],[-9.091277,39.514975],[-9.070848,39.588015],[-9.070311,39.616368],[-9.039459,39.72651],[-8.965986,39.873148],[-8.895789,39.965017],[-8.824007,40.06898],[-8.826326,40.190324],[-8.781263,40.27217],[-8.741509,40.407158],[-8.730729,40.589507],[-8.633417,40.6491],[-8.563342,40.71288],[-8.610923,40.815119],[-8.661948,40.8675],[-8.644924,40.935884],[-8.639938,41.015499],[-8.661877,41.110061],[-8.635127,41.149511],[-8.642958,41.208132],[-8.690838,41.258867],[-8.737526,41.32716],[-8.753175,41.380383],[-8.76927,41.505883],[-8.782793,41.566682],[-8.798573,41.613518],[-8.817562,41.685536],[-8.874422,41.740556],[-8.869888,41.820736],[-8.79337,41.910476],[-8.743697,41.946269],[-8.671335,41.996637],[-8.646507,42.049111],[-8.646962,42.092839],[-8.62828,42.157514],[-8.619203,42.210609],[-8.610695,42.277207],[-8.606752,42.332912],[-8.631818,42.386555],[-8.64449,42.43051],[-8.648407,42.469555],[-8.649855,42.510601],[-8.642756,42.559515],[-8.642374,42.60339],[-8.643728,42.646987],[-8.652632,42.721059],[-8.654966,42.777466],[-8.61561,42.82888],[-8.554083,42.874282],[-8.508965,42.894586],[-8.457618,43.014592],[-8.388637,43.08311],[-8.346457,43.200777],[-8.348027,43.258858],[-8.355505,43.310871],[-8.388659,43.346763],[-8.404245,43.349862],[-8.37907,43.323277],[-8.319058,43.297265],[-8.228966,43.281701],[-8.151901,43.298101],[-7.997894,43.271578],[-7.815859,43.314991],[-7.67608,43.342497],[-7.5729,43.423195],[-7.498126,43.468713],[-7.449092,43.516626],[-7.341435,43.626434],[-7.34017,43.634776],[-7.269916,43.577077],[-7.198429,43.553568],[-7.052157,43.52193],[-7.040497,43.491853],[-6.932466,43.555449],[-6.798656,43.546377],[-6.702097,43.536771],[-6.609774,43.550584],[-6.500834,43.538833],[-6.408805,43.54516],[-6.341471,43.54632],[-6.293295,43.560687],[-6.226919,43.550074],[-6.151324,43.544088],[-6.101121,43.491082],[-6.058644,43.442696],[-6.017544,43.397529],[-5.94883,43.390688],[-5.89712,43.359699],[-5.852834,43.357783],[-5.845799,43.296751],[-5.792795,43.268737],[-5.761819,43.180689],[-5.679408,43.166188],[-5.561627,43.122613],[-5.458458,43.082798],[-5.430819,43.068867],[-5.31714,43.058564],[-5.228863,43.07872],[-5.109723,43.041546],[-4.996644,42.994559],[-4.92532,42.972069],[-4.869496,42.925718],[-4.854649,42.863104],[-4.846982,42.772751],[-4.808589,42.653977],[-4.74944,42.480895],[-4.59922,42.33691],[-4.399213,42.263903],[-4.189065,42.303793],[-4.090629,42.301822],[-3.99025,42.32605],[-3.875261,42.341806],[-3.794015,42.348246],[-3.728362,42.341864],[-3.690312,42.349332],[-3.668626,42.299512],[-3.538581,42.2044],[-3.383593,42.07501],[-3.334141,42.017164],[-3.268928,42.006222],[-3.215771,41.959486],[-3.136616,41.963132],[-3.103136,41.920487],[-3.069419,41.846609],[-2.93856,41.841515],[-2.67614,41.808371],[-2.526747,41.787554],[-2.467146,41.789821],[-2.275062,41.851764],[-2.051258,41.871126],[-1.877803,41.847873],[-1.781232,41.807264],[-1.71036,41.83782],[-1.723486,41.884399],[-1.673331,41.970804],[-1.601353,42.06318],[-1.495197,42.090489],[-1.405962,42.104087],[-1.138866,42.127606],[-0.922467,42.122994],[-0.786192,42.133238],[-0.748665,42.274302],[-0.738149,42.35582],[-0.734995,42.383148],[-0.645823,42.413516],[-0.614453,42.448366],[-0.577946,42.481517],[-0.557009,42.496555],[-0.561674,42.522843],[-0.562544,42.558825],[-0.548335,42.630456],[-0.525168,42.720633],[-0.517754,42.778281],[-0.546161,42.805386],[-0.554685,42.873573],[-0.589833,42.936324],[-0.603678,43.01697],[-0.611243,43.091764],[-0.52692,43.132322],[-0.470531,43.135848],[-0.406623,43.208828],[-0.380024,43.288406],[-0.310517,43.30221],[-0.156518,43.305996],[-0.017811,43.37982],[0.194201,43.400612],[0.343025,43.438278],[0.413972,43.517269],[0.524963,43.612319],[0.598953,43.649997],[0.722819,43.6483],[0.843211,43.701923],[0.91157,43.815057],[1.026339,43.833395],[1.133202,43.899757],[1.232104,43.957063],[1.355999,44.024221],[1.435243,44.084565],[1.539018,44.160987],[1.724225,44.157846],[1.82085,44.143095],[1.927566,44.15661],[2.015964,44.1814],[2.10887,44.21715],[2.223828,44.282359],[2.346302,44.326107],[2.415176,44.362577],[2.500239,44.384723],[2.599343,44.405105],[2.688722,44.401584],[2.838356,44.409186],[2.955557,44.439692],[3.038195,44.414809],[3.129048,44.419031],[3.20979,44.436477],[3.249816,44.478936],[3.333248,44.47245],[3.414459,44.511884],[3.501294,44.517729],[3.515413,44.566143],[3.623879,44.6578],[3.681126,44.69633],[3.73563,44.765789],[3.823273,44.809788],[3.878211,44.93092],[3.928025,44.961944],[3.971534,44.942603],[4.090658,44.940834],[4.152054,45.031565],[4.243458,45.092929],[4.332359,45.118406],[4.443034,45.140589],[4.503308,45.175716],[4.579969,45.217001],[4.650878,45.24534],[4.711519,45.233151],[4.803836,45.242731],[4.862988,45.291305],[4.984628,45.316217],[5.091426,45.341452],[5.296012,45.388409],[5.420538,45.398441],[5.515371,45.398211],[5.621066,45.391176],[5.699251,45.403185],[5.773116,45.455139],[5.844843,45.502083],[5.903266,45.563554],[5.947099,45.565937],[6.00075,45.518459],[6.121391,45.544816],[6.249231,45.587996],[6.393778,45.668366],[6.450633,45.619166],[6.464745,45.545625],[6.507303,45.499711],[6.540732,45.489779],[6.541833,45.507486],[6.607049,45.546924],[6.683994,45.563457],[6.737385,45.576752],[6.766198,45.603142],[6.811857,45.619898],[6.841677,45.618963],[6.863819,45.624024],[6.847941,45.644345],[6.873456,45.670944],[6.917715,45.707208],[6.960118,45.737585],[7.017793,45.761873],[7.127407,45.706282],[7.20623,45.703932],[7.289408,45.728589],[7.307843,45.772558],[7.22996,45.819576],[7.175282,45.84521],[7.160284,45.86119],[7.181077,45.873676],[7.205566,45.929981],[7.177989,45.997786],[7.148598,46.023922],[7.151283,46.077516],[7.087354,46.081304],[7.055712,46.086398],[7.125926,46.125881],[7.25207,46.184747],[7.371615,46.227938],[7.542511,46.286652],[7.634109,46.310917],[7.740469,46.306831],[7.862988,46.301964],[7.86956,46.231581],[7.805751,46.181574],[7.787094,46.110235],[7.775139,46.058678],[7.770059,46.047982],[7.785395,46.116949],[7.812689,46.1893],[7.875973,46.239698],[7.842117,46.30582],[7.753323,46.317609],[7.757714,46.363183],[7.667109,46.543206],[7.686648,46.614633],[7.708279,46.659301],[7.774351,46.654648],[7.847925,46.675824],[7.890702,46.638729],[7.907597,46.597125],[7.870544,46.655673],[7.884701,46.699031],[7.94241,46.725834],[8.00451,46.754968],[8.059583,46.741011],[8.189578,46.722544],[8.239163,46.708644],[8.300122,46.720496],[8.35362,46.738122],[8.383988,46.73623],[8.392577,46.739942],[8.423756,46.734135],[8.476191,46.744125],[8.562284,46.722125],[8.594382,46.689537],[8.581972,46.656643],[8.594804,46.637335],[8.585965,46.660094],[8.600771,46.700307],[8.639995,46.741037],[8.656015,46.760867],[8.65109,46.811558],[8.634642,46.866667],[8.624133,46.908693],[8.620983,46.946678],[8.631121,46.952677],[8.613606,46.987226],[8.649299,47.015355],[8.621294,47.057219],[8.679073,47.111259],[8.719815,47.169576],[8.791874,47.202079],[8.881607,47.191977],[9.045437,47.141267],[9.070193,47.10167],[9.145925,47.122594],[9.210284,47.11309],[9.285678,47.113457],[9.365578,47.086456],[9.433799,47.049315],[9.552439,46.988153],[9.649373,46.981295],[9.726749,46.92476],[9.806896,46.907476],[9.879777,46.881119],[9.882354,46.848438],[9.846525,46.814542],[9.888053,46.806382],[9.934054,46.776465],[9.940669,46.75556],[9.986482,46.744397],[10.049163,46.750839],[10.079495,46.749995],[10.128532,46.771257],[10.179652,46.77407],[10.242881,46.779199],[10.294234,46.795173],[10.368928,46.82642],[10.440906,46.865314],[10.482771,46.912744],[10.539479,46.965218],[10.629802,47.03728],[10.639586,47.114638],[10.5888,47.155419],[10.656084,47.196923],[10.766222,47.22116],[10.848792,47.240045],[10.962071,47.276408],[11.121335,47.302197],[11.256718,47.264533],[11.393741,47.259751],[11.405241,47.224805],[11.426082,47.193732],[11.452878,47.163806],[11.452502,47.114896],[11.482093,47.040214],[11.489525,46.981467],[11.444161,46.938221],[11.442393,46.883125],[11.533767,46.830292],[11.626664,46.777683],[11.652347,46.71584],[11.586811,46.650689],[11.529367,46.59849],[11.470551,46.511226],[11.358918,46.492975],[11.248445,46.519163],[11.179441,46.629405],[11.158901,46.666516],[11.196097,46.57718],[11.304598,46.482961],[11.288952,46.355668],[11.183542,46.236375],[11.098556,46.145406],[11.113013,46.09719],[11.172776,46.083331],[11.232197,46.055289],[11.258696,46.001273],[11.423897,46.043711],[11.519481,46.046537],[11.670592,45.991816],[11.71713,45.972682],[11.802877,46.005797],[11.90618,46.015019],[11.932457,45.966131],[11.97764,45.864586],[12.007132,45.804336],[12.014755,45.717448],[12.021658,45.682906],[12.079143,45.61375],[12.14221,45.552218],[12.201604,45.518177],[12.236141,45.486245],[12.315927,45.440389],[12.251513,45.484739],[12.303457,45.504537],[12.356411,45.518801],[12.44172,45.559172],[12.62709,45.568093],[12.708561,45.607532],[12.844681,45.687731],[12.996698,45.776477],[13.139729,45.82072],[13.325484,45.826244],[13.412566,45.805481],[13.536087,45.803972],[13.618186,45.773499],[13.68829,45.738871],[13.787597,45.689952],[13.862838,45.643857],[13.914157,45.585366],[13.969234,45.509483],[14.113405,45.468596],[14.25545,45.406741],[14.33943,45.37018],[14.390813,45.343076],[14.464099,45.322378],[14.510846,45.317243],[14.573216,45.299084],[14.611897,45.258833],[14.680066,45.218057],[14.706905,45.165294],[14.822507,45.11623],[14.882565,45.03312],[14.920452,44.974849],[14.913976,44.909552],[14.89784,44.805086],[14.917658,44.722142],[14.989898,44.595835],[15.068921,44.533425],[15.117919,44.493804],[15.211978,44.427702],[15.293376,44.359876],[15.357596,44.333042],[15.44708,44.288478],[15.539019,44.253183],[15.46513,44.211868],[15.52233,44.101659],[15.681044,43.975476],[15.783139,43.845409],[15.866363,43.759462],[15.94817,43.735105],[16.107821,43.659872],[16.228665,43.617821],[16.333128,43.555729],[16.469937,43.543846],[16.452901,43.511116],[16.56457,43.511448],[16.689172,43.467864],[16.83712,43.463408],[16.941658,43.439657],[17.064506,43.384256],[17.116871,43.330275],[17.273662,43.219168],[17.433693,43.189502],[17.516838,43.18178],[17.601139,43.108734],[17.653399,43.062443],[17.698636,43.041677],[17.782489,43.001422],[17.820344,42.945811],[17.95704,42.927249],[18.030993,42.835383],[18.093583,42.782634],[18.195153,42.729814],[18.164011,42.660114],[18.120669,42.642924],[18.102116,42.646042],[18.203874,42.62396],[18.280632,42.562444],[18.447428,42.482776],[18.498624,42.455155],[18.57209,42.451544],[18.640485,42.444854],[18.674196,42.466679],[18.652426,42.486998],[18.681523,42.512441],[18.698831,42.487319],[18.752806,42.489642],[18.76381,42.464658],[18.766692,42.411288],[18.755505,42.381486],[18.808015,42.304274],[18.852014,42.286208],[18.885004,42.280297],[18.894163,42.268204],[18.900443,42.250905],[18.908698,42.232941],[18.916767,42.218635],[18.931073,42.208677],[18.968068,42.198757],[18.997397,42.175779],[19.010842,42.167058],[19.030053,42.157059],[19.084671,42.112403],[19.123505,42.070378],[19.153494,42.019142],[19.191512,41.962776],[19.237746,41.929588],[19.264576,41.999018],[19.326114,42.005152],[19.399134,42.016155],[19.481264,42.038666],[19.543701,41.980454],[19.562639,41.923855],[19.63104,41.854036],[19.645232,41.727364],[19.658806,41.629825],[19.665962,41.537767],[19.708186,41.444887],[19.757951,41.363247],[19.817306,41.324166],[19.857001,41.284938],[19.892404,41.255724],[19.939105,41.220262],[19.969288,41.219443],[19.980227,41.203849],[19.999846,41.177217],[20.010524,41.146502],[20.025218,41.111313],[20.088374,41.113156],[20.142602,41.150643],[20.146601,41.16589],[20.170078,41.196078],[20.188049,41.229022],[20.200645,41.256006],[20.243959,41.260846],[20.289586,41.232513],[20.303615,41.206172],[20.319916,41.177208],[20.401578,41.128606],[20.485778,41.074642],[20.591881,41.068627],[20.611466,41.095789],[20.692154,41.200972],[20.770806,41.208451],[20.833621,41.175264],[20.91539,41.198606],[20.956485,41.158152],[21.010896,41.101735],[21.144533,41.067446],[21.30063,41.037414],[21.416319,40.921989],[21.407388,40.877843],[21.400328,40.826587],[21.463665,40.802046],[21.549637,40.78637],[21.630302,40.773195],[21.776989,40.802817],[21.902639,40.836412],[21.997378,40.807379],[22.048885,40.800608],[22.15599,40.782385],[22.360685,40.777605],[22.55179,40.707543],[22.787046,40.665364],[22.925529,40.645415],[22.941117,40.680246],[22.984968,40.726331],[23.046451,40.715232],[23.137094,40.720292],[23.354661,40.702649],[23.523987,40.691959],[23.68853,40.69349],[23.791308,40.7728],[23.906302,40.78299],[23.994463,40.810403],[24.202254,40.872022],[24.320432,40.93602],[24.387379,40.942489],[24.437932,40.946639],[24.538166,40.967608],[24.674762,41.005008],[24.754209,41.066329],[24.851355,41.07928],[25.00021,41.119137],[25.183687,41.127805],[25.297042,41.123819],[25.446667,41.08754],[25.57407,40.981695],[25.652737,40.954446],[25.690317,40.901341],[25.745638,40.858322],[25.902185,40.849814],[26.058638,40.904547],[26.170589,40.904522],[26.301003,40.945554],[26.431064,40.939656],[26.524922,40.912268],[26.620666,40.963121],[26.685325,40.966576],[26.780668,40.990006],[26.864112,41.039222],[26.954928,41.058594],[27.095786,41.04278],[27.261484,41.019725],[27.432531,40.999276],[27.511721,40.978155],[27.670006,41.002286],[27.888365,40.999395],[28.030078,41.04841],[28.197427,41.077217],[28.346821,41.076783],[28.487953,41.013957],[28.615313,41.012692],[28.736449,40.977691],[28.830808,40.957494],[28.918999,40.991908],[28.978611,41.005336],[29.007135,41.04215],[29.056729,41.08315],[29.066424,41.091714],[29.112143,41.038],[29.211755,40.981708],[29.321045,40.938776],[29.402117,40.893024],[29.482201,40.805799],[29.620587,40.783302],[29.799815,40.757007],[29.907701,40.75998],[30.053159,40.731441],[30.198232,40.703494],[30.335734,40.71523],[30.462382,40.720806],[30.596566,40.6706],[30.698957,40.595035],[30.929618,40.57089],[31.081685,40.522012],[31.227394,40.451321],[31.240357,40.425424],[31.285223,40.362797],[31.352073,40.187631],[31.544126,40.101296],[31.68918,40.193693],[31.846505,40.18098],[31.935108,40.172339],[32.161721,40.064041],[32.3112,39.90292],[32.448587,39.755778],[32.703395,39.693147],[33.12516,39.543973],[33.274741,39.398797],[33.383009,39.187646],[33.590057,39.049056],[33.828177,38.968934],[34.093689,38.830586],[34.211308,38.686083],[34.630863,38.617765],[34.814436,38.633312],[34.926301,38.712822],[35.180014,38.691915],[35.314425,38.753384],[35.434181,38.796157],[35.546173,38.864383],[35.683189,38.930594],[35.804668,39.052755],[35.961499,39.186145],[36.167836,39.236454],[36.260851,39.307113],[36.503596,39.414748],[36.791471,39.551303],[36.902681,39.665758],[37.003705,39.72818],[37.143316,39.820156],[37.388866,39.854536],[37.670165,39.872174],[37.806075,39.908105],[37.8921,39.944637],[37.967877,39.979594],[38.039266,40.043241],[38.10679,40.142112],[38.123796,40.230618],[38.250054,40.295555],[38.397385,40.287079],[38.44727,40.36068],[38.352069,40.521153],[38.351517,40.574902],[38.360796,40.616542],[38.370507,40.651445],[38.340755,40.718938],[38.35499,40.755005],[38.394561,40.819656],[38.402716,40.871653],[38.436205,40.911549],[38.618809,40.966719],[38.79695,40.996989],[38.923305,41.038773],[39.130704,41.055373],[39.225015,41.053817],[39.44893,41.099603],[39.627707,41.004377],[39.733384,41.001275],[39.869745,40.953592],[40.053435,40.941082],[40.218576,40.924962],[40.368167,41.016053],[40.505451,41.038806],[40.669504,41.072675],[40.82404,41.166852],[40.961992,41.186137],[41.216177,41.303896],[41.42984,41.40373],[41.549117,41.520656],[41.68346,41.567974],[41.799296,41.551165],[41.925581,41.594953],[42.037296,41.644756],[42.136454,41.644333],[42.194344,41.625837],[42.252347,41.625464],[42.296253,41.630864],[42.346787,41.657052],[42.400059,41.681565],[42.439724,41.67631],[42.530303,41.695262],[42.668031,41.679928],[42.827225,41.646297],[43.00003,41.638296],[43.071402,41.574562],[43.173968,41.581531],[43.24318,41.563753],[43.266627,41.496644],[43.382271,41.511163],[43.547364,41.406136],[43.715836,41.411067],[43.797355,41.477517],[43.984386,41.563273],[44.166435,41.640023],[44.432009,41.572015],[44.619906,41.542036],[44.876377,41.508577],[45.049678,41.562039],[45.216307,41.615926],[45.399217,41.622178],[45.533284,41.595448],[45.69926,41.593009],[45.870326,41.554752],[46.080781,41.466181],[46.34894,41.371862],[46.553476,41.191286],[46.509098,41.120933],[46.486724,41.025169],[46.278679,40.910297],[46.076118,40.888566],[45.89666,40.901828],[45.745976,40.942066],[45.620977,40.994022],[45.505232,41.062444],[45.366061,41.096925],[45.540358,41.052115],[45.632431,40.983091],[45.777099,40.935639],[45.950739,40.900115],[46.100602,40.785371],[46.320717,40.702599],[46.445274,40.720127],[46.606095,40.699925],[46.646381,40.651285],[46.745214,40.58056],[46.844504,40.65556],[46.994239,40.764632],[47.208397,40.71935],[47.435995,40.655767],[47.516161,40.652417],[47.636037,40.647934],[47.792049,40.631851],[47.959243,40.579346],[48.135762,40.656797],[48.289064,40.602515],[48.558213,40.487644],[48.681906,40.462668],[48.790299,40.373145],[48.885083,40.269312],[49.630169,40.384258],[49.768589,40.434621],[49.835994,40.472947],[49.912373,40.507506],[50.052756,40.513399],[50.119841,40.517643]]},"properties":{"name":"Stage 1 Route","description":"Praia do Guincho, Portugal to Baku, Azerbaijan","profile":"cycling"}},{"type":"Feature","geometry":{"type":"Point","coordinates":[-9.4724771,38.7324707]},"properties":{"name":"Praia do Guincho","order":1}},{"type":"Feature","geometry":{"type":"Point","coordinates":[-9.0677509,39.6015562]},"properties":{"name":"Nazaré","order":2}},{"type":"Feature","geometry":{"type":"Point","coordinates":[-8.7381261,40.4287977]},"properties":{"name":"Mira","order":3}},{"type":"Feature","geometry":{"type":"Point","coordinates":[-8.6291053,41.1579438]},"properties":{"name":"Porto","order":4}},{"type":"Feature","geometry":{"type":"Point","coordinates":[-8.6446202,42.4298846]},"properties":{"name":"Pontevedra","order":5}},{"type":"Feature","geometry":{"type":"Point","coordinates":[-8.4103923,43.3637626]},"properties":{"name":"A Coruña","order":6}},{"type":"Feature","geometry":{"type":"Point","coordinates":[-7.3605628,43.661982]},"properties":{"name":"Burela","order":7}},{"type":"Feature","geometry":{"type":"Point","coordinates":[-6.6483467,43.5627804]},"properties":{"name":"Puerto de Vega","order":8}},{"type":"Feature","geometry":{"type":"Point","coordinates":[-5.8485461,43.3622522]},"properties":{"name":"Oviedo","order":9}},{"type":"Feature","geometry":{"type":"Point","coordinates":[-5.0058951,42.9764192]},"properties":{"name":"Riaño","order":10}},{"type":"Feature","geometry":{"type":"Point","coordinates":[-3.6893545,42.3504659]},"properties":{"name":"Burgos","order":11}},{"type":"Feature","geometry":{"type":"Point","coordinates":[-2.4790872,41.766436]},"properties":{"name":"Soria","order":12}},{"type":"Feature","geometry":{"type":"Point","coordinates":[-1.7225575,41.826404]},"properties":{"name":"Trasmoz","order":13}},{"type":"Feature","geometry":{"type":"Point","coordinates":[-0.9492193,42.1169172]},"properties":{"name":"Erla","order":14}},{"type":"Feature","geometry":{"type":"Point","coordinates":[-0.5254869,42.71649]},"properties":{"name":"Canfranc","order":15}},{"type":"Feature","geometry":{"type":"Point","coordinates":[-0.370797,43.2951]},"properties":{"name":"Pau","order":16}},{"type":"Feature","geometry":{"type":"Point","coordinates":[0.897811,43.80531]},"properties":{"name":"Solomiac","order":17}},{"type":"Feature","geometry":{"type":"Point","coordinates":[2.236322,44.306225]},"properties":{"name":"Rieupeyroux","order":18}},{"type":"Feature","geometry":{"type":"Point","coordinates":[3.5014879,44.5179297]},"properties":{"name":"Mende","order":19}},{"type":"Feature","geometry":{"type":"Point","coordinates":[4.2904534,45.1144854]},"properties":{"name":"Tence","order":20}},{"type":"Feature","geometry":{"type":"Point","coordinates":[5.917781,45.564601]},"properties":{"name":"Chambéry","order":21}},{"type":"Feature","geometry":{"type":"Point","coordinates":[7.3130948,45.7350508]},"properties":{"name":"Aosta","order":22}},{"type":"Feature","geometry":{"type":"Point","coordinates":[7.1788401,46.1513081]},"properties":{"name":"Saxon","order":23}},{"type":"Feature","geometry":{"type":"Point","coordinates":[7.749117,46.0207133]},"properties":{"name":"Zermatt","order":24}},{"type":"Feature","geometry":{"type":"Point","coordinates":[7.9090981,46.5935058]},"properties":{"name":"Lauterbrunnen","order":25}},{"type":"Feature","geometry":{"type":"Point","coordinates":[8.5935627,46.6339116]},"properties":{"name":"Andermatt","order":26}},{"type":"Feature","geometry":{"type":"Point","coordinates":[9.0673318,47.0994786]},"properties":{"name":"Glarus Nord","order":27}},{"type":"Feature","geometry":{"type":"Point","coordinates":[9.8359701,46.8027453]},"properties":{"name":"Davos","order":28}},{"type":"Feature","geometry":{"type":"Point","coordinates":[11.3910349,47.2675322]},"properties":{"name":"Innsbruck","order":29}},{"type":"Feature","geometry":{"type":"Point","coordinates":[11.1525785,46.6711489]},"properties":{"name":"Merano","order":30}},{"type":"Feature","geometry":{"type":"Point","coordinates":[11.8011092,46.0167828]},"properties":{"name":"Fonzaso","order":31}},{"type":"Feature","geometry":{"type":"Point","coordinates":[12.3159547,45.440379]},"properties":{"name":"Venice","order":32}},{"type":"Feature","geometry":{"type":"Point","coordinates":[13.6044065,45.7733884]},"properties":{"name":"Duino","order":33}},{"type":"Feature","geometry":{"type":"Point","coordinates":[15.0213211,44.5648438]},"properties":{"name":"Cesarica","order":34}},{"type":"Feature","geometry":{"type":"Point","coordinates":[16.4435148,43.5147118]},"properties":{"name":"Split","order":35}},{"type":"Feature","geometry":{"type":"Point","coordinates":[18.0944238,42.6506606]},"properties":{"name":"Dubrovnik","order":36}},{"type":"Feature","geometry":{"type":"Point","coordinates":[19.2147632,41.9310884]},"properties":{"name":"Ulcinj","order":37}},{"type":"Feature","geometry":{"type":"Point","coordinates":[20.0822631,41.1113835]},"properties":{"name":"Elbasan","order":38}},{"type":"Feature","geometry":{"type":"Point","coordinates":[21.4131222,40.7845262]},"properties":{"name":"Florina","order":39}},{"type":"Feature","geometry":{"type":"Point","coordinates":[22.9444191,40.6400629]},"properties":{"name":"Thessaloniki","order":40}},{"type":"Feature","geometry":{"type":"Point","coordinates":[24.4148129,40.9366961]},"properties":{"name":"Kavala","order":41}},{"type":"Feature","geometry":{"type":"Point","coordinates":[25.8740938,40.8456352]},"properties":{"name":"Alexandroupoli","order":42}},{"type":"Feature","geometry":{"type":"Point","coordinates":[27.511674,40.9780919]},"properties":{"name":"Tekirdağ","order":43}},{"type":"Feature","geometry":{"type":"Point","coordinates":[28.9783589,41.0082376]},"properties":{"name":"Istanbul","order":44}},{"type":"Feature","geometry":{"type":"Point","coordinates":[30.6418,40.6282]},"properties":{"name":"Kuzuluk","order":45}},{"type":"Feature","geometry":{"type":"Point","coordinates":[31.920441,40.168218]},"properties":{"name":"Beypazarı","order":46}},{"type":"Feature","geometry":{"type":"Point","coordinates":[33.123771,39.553374]},"properties":{"name":"Bala","order":47}},{"type":"Feature","geometry":{"type":"Point","coordinates":[34.828889,38.643056]},"properties":{"name":"Göreme","order":48}},{"type":"Feature","geometry":{"type":"Point","coordinates":[36.071732,39.184872]},"properties":{"name":"Gemerek","order":49}},{"type":"Feature","geometry":{"type":"Point","coordinates":[37.757236,39.898445]},"properties":{"name":"Zara","order":50}},{"type":"Feature","geometry":{"type":"Point","coordinates":[38.3581041,40.629857]},"properties":{"name":"Pınarlar","order":51}},{"type":"Feature","geometry":{"type":"Point","coordinates":[39.7167633,41.0026969]},"properties":{"name":"Trabzon","order":52}},{"type":"Feature","geometry":{"type":"Point","coordinates":[41.419843,41.394618]},"properties":{"name":"Hopa","order":53}},{"type":"Feature","geometry":{"type":"Point","coordinates":[42.9824876,41.6414204]},"properties":{"name":"Akhaltsikhe","order":54}},{"type":"Feature","geometry":{"type":"Point","coordinates":[44.0906451,41.5993233]},"properties":{"name":"Tsalka","order":55}},{"type":"Feature","geometry":{"type":"Point","coordinates":[45.3516331,41.0971074]},"properties":{"name":"Gazakh","order":56}},{"type":"Feature","geometry":{"type":"Point","coordinates":[46.3723313,40.6878581]},"properties":{"name":"Ganja","order":57}},{"type":"Feature","geometry":{"type":"Point","coordinates":[48.3918135,40.566698]},"properties":{"name":"Agsu","order":58}},{"type":"Feature","geometry":{"type":"Point","coordinates":[50.1197805,40.5178548]},"properties":{"name":"Baku","order":59}}]}